{"type":"FeatureCollection","features":[{"id":1843,"type":"Feature","geometry":{"type":"Point","coordinates":[0,0]},"properties":{"name":"","state":"","type":null}},{"id":2705,"type":"Feature","geometry":{"type":"Point","coordinates":[-81.362295,28.768793]},"properties":{"name":"AAA","state":"AL","type":null}},{"id":791,"type":"Feature","geometry":{"type":"Point","coordinates":[-86.4958,34.3181]},"properties":{"name":"Arab","state":"AL","type":1}},{"id":790,"type":"Feature","geometry":{"type":"Point","coordinates":[-90.344497758926,33.949029490924]},"properties":{"name":"Chickasaw","state":"AL","type":1}},{"id":792,"type":"Feature","geometry":{"type":"Point","coordinates":[-86.8436,34.1748]},"properties":{"name":"Cullman","state":"AL","type":1}},{"id":1250,"type":"Feature","geometry":{"type":"Point","coordinates":[-86.8436,34.1748]},"properties":{"name":"Cullman County","state":"AL","type":4}},{"id":998,"type":"Feature","geometry":{"type":"Point","coordinates":[-80.554336,24.974336]},"properties":{"name":"Dixie","state":"AL","type":1}},{"id":1251,"type":"Feature","geometry":{"type":"Point","coordinates":[-85.9041,34.4468]},"properties":{"name":"Fyffe","state":"AL","type":1}},{"id":1002,"type":"Feature","geometry":{"type":"Point","coordinates":[-86.839393,34.175566]},"properties":{"name":"Good Hope","state":"AL","type":1}},{"id":1001,"type":"Feature","geometry":{"type":"Point","coordinates":[-86.7675,34.0607]},"properties":{"name":"Hanceville","state":"AL","type":1}},{"id":1004,"type":"Feature","geometry":{"type":"Point","coordinates":[-85.8664,33.9982]},"properties":{"name":"Hokes Bluff","state":"AL","type":1}},{"id":1000,"type":"Feature","geometry":{"type":"Point","coordinates":[-87.4889,33.9896]},"properties":{"name":"Nauvoo","state":"AL","type":1}},{"id":999,"type":"Feature","geometry":{"type":"Point","coordinates":[-86.4728,33.9482]},"properties":{"name":"Oneonta","state":"AL","type":1}},{"id":1253,"type":"Feature","geometry":{"type":"Point","coordinates":[-87.5736,30.2944]},"properties":{"name":"Orange Beach","state":"AL","type":1}},{"id":997,"type":"Feature","geometry":{"type":"Point","coordinates":[-86.149597,34.196222]},"properties":{"name":"Sand Mountain","state":"AL","type":5}},{"id":789,"type":"Feature","geometry":{"type":"Point","coordinates":[-86.7878,33.4487]},"properties":{"name":"Vestavia Hills","state":"AL","type":2}},{"id":2006,"type":"Feature","geometry":{"type":"Point","coordinates":[42.654907945543,14.006642062404]},"properties":{"name":"West Point","state":"AL","type":1}},{"id":1740,"type":"Feature","geometry":{"type":"Point","coordinates":[-87.408465,34.157314]},"properties":{"name":"Winston County","state":"AL","type":1}},{"id":971,"type":"Feature","geometry":{"type":"Point","coordinates":[-93.730281,35.424612]},"properties":{"name":"Alix","state":"AR","type":1}},{"id":840,"type":"Feature","geometry":{"type":"Point","coordinates":[-93.7624,35.4462]},"properties":{"name":"Altus","state":"AR","type":1}},{"id":1008,"type":"Feature","geometry":{"type":"Point","coordinates":[-93.461,34.2648]},"properties":{"name":"Amity","state":"AR","type":1}},{"id":793,"type":"Feature","geometry":{"type":"Point","coordinates":[-91.6085,36.224]},"properties":{"name":"Ash Flat","state":"AR","type":1}},{"id":794,"type":"Feature","geometry":{"type":"Point","coordinates":[-92.5213,34.5556]},"properties":{"name":"Bauxite","state":"AR","type":1}},{"id":1701,"type":"Feature","geometry":{"type":"Point","coordinates":[-92.4448661,36.3008572]},"properties":{"name":"Baxter County","state":"Ar","type":4}},{"id":795,"type":"Feature","geometry":{"type":"Point","coordinates":[-91.0973,36.1084]},"properties":{"name":"Black Rock","state":"AR","type":1}},{"id":1996,"type":"Feature","geometry":{"type":"Point","coordinates":[-64.184509,-31.422632]},"properties":{"name":"Bonanza","state":"AR","type":1}},{"id":991,"type":"Feature","geometry":{"type":"Point","coordinates":[-93.9216,35.1401]},"properties":{"name":"Booneville","state":"AR","type":1}},{"id":796,"type":"Feature","geometry":{"type":"Point","coordinates":[-91.456,35.4231]},"properties":{"name":"Bradford","state":"AR","type":1}},{"id":797,"type":"Feature","geometry":{"type":"Point","coordinates":[-90.5821,35.9001]},"properties":{"name":"Brookland","state":"AR","type":1}},{"id":798,"type":"Feature","geometry":{"type":"Point","coordinates":[-92.0165,34.9745]},"properties":{"name":"Cabot","state":"AR","type":1}},{"id":799,"type":"Feature","geometry":{"type":"Point","coordinates":[-92.136,36.1195]},"properties":{"name":"Calico Rock","state":"AR","type":2}},{"id":800,"type":"Feature","geometry":{"type":"Point","coordinates":[-92.349,34.7781]},"properties":{"name":"Cammack Village","state":"AR","type":2}},{"id":830,"type":"Feature","geometry":{"type":"Point","coordinates":[-94.417936,39.247015]},"properties":{"name":"Clay County","state":"AR","type":4}},{"id":980,"type":"Feature","geometry":{"type":"Point","coordinates":[-92.031895,35.491153]},"properties":{"name":"Cleburne County","state":"AR","type":4}},{"id":986,"type":"Feature","geometry":{"type":"Point","coordinates":[-92.5354,36.2712]},"properties":{"name":"Cotter","state":"AR","type":1}},{"id":1748,"type":"Feature","geometry":{"type":"Point","coordinates":[-94.197965,35.48705]},"properties":{"name":"Crawford County","state":"AR","type":null}},{"id":802,"type":"Feature","geometry":{"type":"Point","coordinates":[-94.4608,36.3359]},"properties":{"name":"Decatur","state":"AR","type":1}},{"id":1007,"type":"Feature","geometry":{"type":"Point","coordinates":[-93.503,34.0315]},"properties":{"name":"Delight","state":"AR","type":1}},{"id":1673,"type":"Feature","geometry":{"type":"Point","coordinates":[-91.6799,35.7362]},"properties":{"name":"Desha","state":"AR","type":0}},{"id":803,"type":"Feature","geometry":{"type":"Point","coordinates":[-92.9202,36.4645]},"properties":{"name":"Diamond City","state":"AR","type":1}},{"id":804,"type":"Feature","geometry":{"type":"Point","coordinates":[-94.0166,34.1193]},"properties":{"name":"Dierks","state":"AR","type":1}},{"id":977,"type":"Feature","geometry":{"type":"Point","coordinates":[-93.1143,35.4015]},"properties":{"name":"Dover","state":"AR","type":1}},{"id":805,"type":"Feature","geometry":{"type":"Point","coordinates":[-94.1377,35.4923]},"properties":{"name":"Dyer","state":"AR","type":1}},{"id":1957,"type":"Feature","geometry":{"type":"Point","coordinates":[-90.2134,35.5898]},"properties":{"name":"Dyess","state":"AR","type":1}},{"id":806,"type":"Feature","geometry":{"type":"Point","coordinates":[-94.0083,36.0015]},"properties":{"name":"Elkins","state":"AR","type":1}},{"id":807,"type":"Feature","geometry":{"type":"Point","coordinates":[-94.234171,36.20611]},"properties":{"name":"Elm Springs","state":"AR","type":1}},{"id":968,"type":"Feature","geometry":{"type":"Point","coordinates":[-90.2323,35.729]},"properties":{"name":"Etowah","state":"AR","type":1}},{"id":1018,"type":"Feature","geometry":{"type":"Point","coordinates":[-93.7392,36.4001]},"properties":{"name":"Eureka Springs","state":"AR","type":1}},{"id":1718,"type":"Feature","geometry":{"type":"Point","coordinates":[-91.6193,36.0717]},"properties":{"name":"Evening Shade","state":"Ar","type":null}},{"id":982,"type":"Feature","geometry":{"type":"Point","coordinates":[-92.2779,35.5942]},"properties":{"name":"Fairfield Bay","state":"AR","type":1}},{"id":1016,"type":"Feature","geometry":{"type":"Point","coordinates":[-93.8855,33.2612]},"properties":{"name":"Fouke","state":"AR","type":1}},{"id":1015,"type":"Feature","geometry":{"type":"Point","coordinates":[-94.4847,36.2676]},"properties":{"name":"Gentry","state":"AR","type":1}},{"id":993,"type":"Feature","geometry":{"type":"Point","coordinates":[-93.5507,34.3268]},"properties":{"name":"Glenwood","state":"AR","type":1}},{"id":808,"type":"Feature","geometry":{"type":"Point","coordinates":[-85.834933,41.584472]},"properties":{"name":"Goshen","state":"AR","type":1}},{"id":809,"type":"Feature","geometry":{"type":"Point","coordinates":[-94.3349,34.2407]},"properties":{"name":"Grannis","state":"AR","type":1}},{"id":810,"type":"Feature","geometry":{"type":"Point","coordinates":[-94.4535,36.422]},"properties":{"name":"Gravette","state":"AR","type":1}},{"id":839,"type":"Feature","geometry":{"type":"Point","coordinates":[-118.361192,34.081483]},"properties":{"name":"Greenway","state":"AR","type":1}},{"id":992,"type":"Feature","geometry":{"type":"Point","coordinates":[-94.2558,35.2156]},"properties":{"name":"Greenwood","state":"AR","type":1}},{"id":981,"type":"Feature","geometry":{"type":"Point","coordinates":[-92.1774,35.577]},"properties":{"name":"Greers Ferry","state":"AR","type":1}},{"id":811,"type":"Feature","geometry":{"type":"Point","coordinates":[-91.074,35.6498]},"properties":{"name":"Grubbs","state":"AR","type":1}},{"id":972,"type":"Feature","geometry":{"type":"Point","coordinates":[-91.4826,36.3159]},"properties":{"name":"Hardy","state":"AR","type":1}},{"id":1017,"type":"Feature","geometry":{"type":"Point","coordinates":[-93.1077,36.2298]},"properties":{"name":"Harrison","state":"AR","type":1}},{"id":801,"type":"Feature","geometry":{"type":"Point","coordinates":[-92.3166,34.7629]},"properties":{"name":"Hillcrest","state":"AR","type":2}},{"id":812,"type":"Feature","geometry":{"type":"Point","coordinates":[-91.1746,36.2026]},"properties":{"name":"Imboden","state":"AR","type":1}},{"id":814,"type":"Feature","geometry":{"type":"Point","coordinates":[-94.14286,36.3424]},"properties":{"name":"Johnson","state":"AR","type":1}},{"id":815,"type":"Feature","geometry":{"type":"Point","coordinates":[-90.43153,36.037153]},"properties":{"name":"Kibler","state":"AR","type":1}},{"id":1020,"type":"Feature","geometry":{"type":"Point","coordinates":[-92.464221,34.6236727]},"properties":{"name":"Lacrosse","state":"AR","type":1}},{"id":976,"type":"Feature","geometry":{"type":"Point","coordinates":[-93.388,35.4406]},"properties":{"name":"Lamar","state":"AR","type":1}},{"id":816,"type":"Feature","geometry":{"type":"Point","coordinates":[-94.1733,35.3362]},"properties":{"name":"Lavaca","state":"AR","type":1}},{"id":835,"type":"Feature","geometry":{"type":"Point","coordinates":[-90.2579,35.9359]},"properties":{"name":"Leachville","state":"AR","type":1}},{"id":969,"type":"Feature","geometry":{"type":"Point","coordinates":[-90.3309,35.6133]},"properties":{"name":"Lepanto","state":"AR","type":1}},{"id":1009,"type":"Feature","geometry":{"type":"Point","coordinates":[-92.5579,35.8304]},"properties":{"name":"Leslie","state":"AR","type":1}},{"id":817,"type":"Feature","geometry":{"type":"Point","coordinates":[-94.1352,36.3859]},"properties":{"name":"Little Flock","state":"AR","type":1}},{"id":841,"type":"Feature","geometry":{"type":"Point","coordinates":[-93.253,35.329]},"properties":{"name":"London","state":"AR","type":1}},{"id":822,"type":"Feature","geometry":{"type":"Point","coordinates":[-93.8069,35.1509]},"properties":{"name":"Magazine","state":"AR","type":1}},{"id":1658,"type":"Feature","geometry":{"type":"Point","coordinates":[-92.8446,34.4543]},"properties":{"name":"Magnet Cove","state":"AR","type":1}},{"id":836,"type":"Feature","geometry":{"type":"Point","coordinates":[-90.167,35.8801]},"properties":{"name":"Manila","state":"AR","type":1}},{"id":1246,"type":"Feature","geometry":{"type":"Point","coordinates":[-122.5391,38.065372]},"properties":{"name":"Marion County","state":"AR","type":4}},{"id":1985,"type":"Feature","geometry":{"type":"Point","coordinates":[-0.733095875,52.0089105]},"properties":{"name":"Marshall","state":"AR","type":1}},{"id":975,"type":"Feature","geometry":{"type":"Point","coordinates":[-94.2397,34.5862]},"properties":{"name":"Mena","state":"AR","type":1}},{"id":974,"type":"Feature","geometry":{"type":"Point","coordinates":[-93.6341,34.5568]},"properties":{"name":"Mount Ida","state":"AR","type":1}},{"id":985,"type":"Feature","geometry":{"type":"Point","coordinates":[-92.3852,36.3353]},"properties":{"name":"Mountain Home","state":"AR","type":1}},{"id":2008,"type":"Feature","geometry":{"type":"Point","coordinates":[-92.1177,35.8684]},"properties":{"name":"Mountain View","state":"AR","type":null}},{"id":1691,"type":"Feature","geometry":{"type":"Point","coordinates":[-93.6341,34.5568]},"properties":{"name":"Mt. Ida","state":"AR","type":1}},{"id":989,"type":"Feature","geometry":{"type":"Point","coordinates":[-94.0516,35.5006]},"properties":{"name":"Mulberry","state":"AR","type":1}},{"id":970,"type":"Feature","geometry":{"type":"Point","coordinates":[-74.751282,41.057713]},"properties":{"name":"Newton County","state":"AR","type":4}},{"id":819,"type":"Feature","geometry":{"type":"Point","coordinates":[-93.391518,36.477193]},"properties":{"name":"Oak Grove Heights","state":"AR","type":1}},{"id":818,"type":"Feature","geometry":{"type":"Point","coordinates":[-122.3,37.8]},"properties":{"name":"Oakland","state":"AR","type":1}},{"id":820,"type":"Feature","geometry":{"type":"Point","coordinates":[-92.7677,35.1012]},"properties":{"name":"Oppelo","state":"AR","type":1}},{"id":821,"type":"Feature","geometry":{"type":"Point","coordinates":[73.741701,15.586363]},"properties":{"name":"Oxford","state":"AR","type":1}},{"id":990,"type":"Feature","geometry":{"type":"Point","coordinates":[-93.8277,35.487]},"properties":{"name":"Ozark","state":"AR","type":1}},{"id":832,"type":"Feature","geometry":{"type":"Point","coordinates":[-91.8385,35.4262]},"properties":{"name":"Pangburn","state":"AR","type":1}},{"id":834,"type":"Feature","geometry":{"type":"Point","coordinates":[-90.4973,36.0584]},"properties":{"name":"Paragould","state":"AR","type":1}},{"id":973,"type":"Feature","geometry":{"type":"Point","coordinates":[-92.8027,35.0048]},"properties":{"name":"Perryville","state":"AR","type":1}},{"id":831,"type":"Feature","geometry":{"type":"Point","coordinates":[-90.1907,36.3828]},"properties":{"name":"Piggott","state":"AR","type":1}},{"id":833,"type":"Feature","geometry":{"type":"Point","coordinates":[-91.0673,36.0865]},"properties":{"name":"Portia","state":"AR","type":1}},{"id":823,"type":"Feature","geometry":{"type":"Point","coordinates":[-93.0491,35.2481]},"properties":{"name":"Pottsville","state":"AR","type":1}},{"id":842,"type":"Feature","geometry":{"type":"Point","coordinates":[-111.6289386,40.3245398]},"properties":{"name":"Provo","state":"AR","type":1}},{"id":824,"type":"Feature","geometry":{"type":"Point","coordinates":[-92.2157,35.3842]},"properties":{"name":"Quitman","state":"AR","type":1}},{"id":1011,"type":"Feature","geometry":{"type":"Point","coordinates":[-94.1185,36.332]},"properties":{"name":"Rogers","state":"AR","type":1}},{"id":1010,"type":"Feature","geometry":{"type":"Point","coordinates":[-110.970042,32.222723]},"properties":{"name":"Scott County","state":"AR","type":4}},{"id":1019,"type":"Feature","geometry":{"type":"Point","coordinates":[-92.4013,34.307]},"properties":{"name":"Sheridan","state":"AR","type":1}},{"id":996,"type":"Feature","geometry":{"type":"Point","coordinates":[-94.5405,36.1881]},"properties":{"name":"Siloam Springs","state":"AR","type":1}},{"id":1012,"type":"Feature","geometry":{"type":"Point","coordinates":[-94.1288,36.1867]},"properties":{"name":"Springdale","state":"AR","type":1}},{"id":988,"type":"Feature","geometry":{"type":"Point","coordinates":[-112.071314,33.509092]},"properties":{"name":"St. Francis","state":"AR","type":1}},{"id":1014,"type":"Feature","geometry":{"type":"Point","coordinates":[-75.614736,40.238386]},"properties":{"name":"Stone County","state":"AR","type":4}},{"id":826,"type":"Feature","geometry":{"type":"Point","coordinates":[115.820474,-31.951965]},"properties":{"name":"Subiaco","state":"AR","type":1}},{"id":827,"type":"Feature","geometry":{"type":"Point","coordinates":[-94.4585,36.4834]},"properties":{"name":"Sulphur Springs","state":"AR","type":1}},{"id":828,"type":"Feature","geometry":{"type":"Point","coordinates":[-110.0917,34.4647]},"properties":{"name":"Taylor","state":"AR","type":1}},{"id":978,"type":"Feature","geometry":{"type":"Point","coordinates":[-94.3483,35.4368]},"properties":{"name":"Van Buren","state":"AR","type":4}},{"id":995,"type":"Feature","geometry":{"type":"Point","coordinates":[-94.0908,34.8984]},"properties":{"name":"Waldron","state":"AR","type":1}},{"id":829,"type":"Feature","geometry":{"type":"Point","coordinates":[-94.3383,34.3032]},"properties":{"name":"Wickes","state":"AR","type":1}},{"id":813,"type":"Feature","geometry":{"type":"Point","coordinates":[-91.356,36.2528]},"properties":{"name":"Williford","state":"AR","type":1}},{"id":249,"type":"Feature","geometry":{"type":"Point","coordinates":[-109.9284,31.4481]},"properties":{"name":"Bisbee","state":"AZ","type":1}},{"id":250,"type":"Feature","geometry":{"type":"Point","coordinates":[-109.1004,32.7152]},"properties":{"name":"Duncan","state":"AZ","type":1}},{"id":251,"type":"Feature","geometry":{"type":"Point","coordinates":[-110.7872,33.396]},"properties":{"name":"Globe","state":"AZ","type":1}},{"id":1717,"type":"Feature","geometry":{"type":"Point","coordinates":[-114.053,35.1894]},"properties":{"name":"Kingman","state":"Az","type":1}},{"id":252,"type":"Feature","geometry":{"type":"Point","coordinates":[-112.4695,34.5403]},"properties":{"name":"Prescott","state":"AZ","type":1}},{"id":253,"type":"Feature","geometry":{"type":"Point","coordinates":[-111.8992,33.5091]},"properties":{"name":"Scottsdale","state":"AZ","type":1}},{"id":247,"type":"Feature","geometry":{"type":"Point","coordinates":[-112.2819,33.629]},"properties":{"name":"Sun City","state":"AZ","type":2}},{"id":1300,"type":"Feature","geometry":{"type":"Point","coordinates":[-110.9265,32.2217]},"properties":{"name":"Tucson","state":"AZ","type":1}},{"id":248,"type":"Feature","geometry":{"type":"Point","coordinates":[-112.3033,33.5937]},"properties":{"name":"Youngtown","state":"AZ","type":2}},{"id":1268,"type":"Feature","geometry":{"type":"Point","coordinates":[-117.9117,33.8348]},"properties":{"name":"Anaheim","state":"CA","type":1}},{"id":2055,"type":"Feature","geometry":{"type":"Point","coordinates":[-65.968719,18.413081]},"properties":{"name":"Anon","state":"CA","type":null}},{"id":1038,"type":"Feature","geometry":{"type":"Point","coordinates":[-121.8058,38.0049]},"properties":{"name":"Antioch","state":"CA","type":1}},{"id":1090,"type":"Feature","geometry":{"type":"Point","coordinates":[88.386766,22.541508]},"properties":{"name":"Arcadia","state":"CA","type":2}},{"id":1114,"type":"Feature","geometry":{"type":"Point","coordinates":[-124.0828,40.8665]},"properties":{"name":"Arcata","state":"CA","type":1}},{"id":1047,"type":"Feature","geometry":{"type":"Point","coordinates":[-120.5907,35.1186]},"properties":{"name":"Arroyo Grande","state":"CA","type":1}},{"id":1108,"type":"Feature","geometry":{"type":"Point","coordinates":[-117.9056,34.1339]},"properties":{"name":"Azusa","state":"CA","type":2}},{"id":1036,"type":"Feature","geometry":{"type":"Point","coordinates":[-119.0195,35.3739]},"properties":{"name":"Bakersfield","state":"CA","type":1}},{"id":1071,"type":"Feature","geometry":{"type":"Point","coordinates":[149.13,-35.28]},"properties":{"name":"Bayshore City","state":"CA","type":1}},{"id":1122,"type":"Feature","geometry":{"type":"Point","coordinates":[-118.448,34.0827]},"properties":{"name":"Bel Air","state":"CA","type":1}},{"id":1072,"type":"Feature","geometry":{"type":"Point","coordinates":[-122.2729,37.8708]},"properties":{"name":"Berkeley","state":"CA","type":1}},{"id":1080,"type":"Feature","geometry":{"type":"Point","coordinates":[-118.3946,37.365]},"properties":{"name":"Bishop","state":"CA","type":1}},{"id":1106,"type":"Feature","geometry":{"type":"Point","coordinates":[-117.8889,33.917]},"properties":{"name":"Brea","state":"CA","type":1}},{"id":1109,"type":"Feature","geometry":{"type":"Point","coordinates":[-117.9962,33.8704]},"properties":{"name":"Buena Park","state":"CA","type":1}},{"id":1110,"type":"Feature","geometry":{"type":"Point","coordinates":[-118.3259,34.1816]},"properties":{"name":"Burbank","state":"CA","type":2}},{"id":1076,"type":"Feature","geometry":{"type":"Point","coordinates":[-122.3661,37.5841]},"properties":{"name":"Burlingame","state":"CA","type":1}},{"id":1100,"type":"Feature","geometry":{"type":"Point","coordinates":[-118.0539,33.8644]},"properties":{"name":"Cerritos","state":"CA","type":2}},{"id":1064,"type":"Feature","geometry":{"type":"Point","coordinates":[-2.890713,53.191802]},"properties":{"name":"Chester","state":"CA","type":1}},{"id":1070,"type":"Feature","geometry":{"type":"Point","coordinates":[-121.8375,39.7285]},"properties":{"name":"Chico","state":"CA","type":1}},{"id":1111,"type":"Feature","geometry":{"type":"Point","coordinates":[-118.226,33.8949]},"properties":{"name":"Compton","state":"CA","type":2}},{"id":1069,"type":"Feature","geometry":{"type":"Point","coordinates":[-122.1792,39.9277]},"properties":{"name":"Corning","state":"CA","type":1}},{"id":1101,"type":"Feature","geometry":{"type":"Point","coordinates":[-117.9033,33.6633]},"properties":{"name":"Costa Mesa","state":"CA","type":2}},{"id":1032,"type":"Feature","geometry":{"type":"Point","coordinates":[-124.2017,41.7559]},"properties":{"name":"Crescent City","state":"CA","type":1}},{"id":1116,"type":"Feature","geometry":{"type":"Point","coordinates":[-118.3965,34.0211]},"properties":{"name":"Culver City","state":"CA","type":2}},{"id":1248,"type":"Feature","geometry":{"type":"Point","coordinates":[-124.1955655,41.760745]},"properties":{"name":"Del Norte County","state":"CA","type":4}},{"id":1050,"type":"Feature","geometry":{"type":"Point","coordinates":[-120.8377,39.206]},"properties":{"name":"Dutch Flat","state":"CA","type":1}},{"id":1077,"type":"Feature","geometry":{"type":"Point","coordinates":[-119.7544697,36.8343499]},"properties":{"name":"East Palo Alto","state":"CA","type":1}},{"id":1713,"type":"Feature","geometry":{"type":"Point","coordinates":[-117.10167,33.14532]},"properties":{"name":"El Norte","state":"CA","type":1}},{"id":1267,"type":"Feature","geometry":{"type":"Point","coordinates":[-117.0815,33.1217]},"properties":{"name":"Escondido","state":"CA","type":1}},{"id":1044,"type":"Feature","geometry":{"type":"Point","coordinates":[-124.1637,40.8021]},"properties":{"name":"Eureka","state":"CA","type":1}},{"id":1264,"type":"Feature","geometry":{"type":"Point","coordinates":[-118.9125,34.3986]},"properties":{"name":"Fillmore","state":"CA","type":1}},{"id":1054,"type":"Feature","geometry":{"type":"Point","coordinates":[-121.1761,38.678]},"properties":{"name":"Folsom","state":"CA","type":2}},{"id":1091,"type":"Feature","geometry":{"type":"Point","coordinates":[-117.435,34.0922]},"properties":{"name":"Fontana","state":"CA","type":1}},{"id":1029,"type":"Feature","geometry":{"type":"Point","coordinates":[-119.8155,36.6714]},"properties":{"name":"Fresno","state":"CA","type":1}},{"id":1083,"type":"Feature","geometry":{"type":"Point","coordinates":[-117.9464,33.7746]},"properties":{"name":"Garden Grove","state":"CA","type":1}},{"id":1107,"type":"Feature","geometry":{"type":"Point","coordinates":[-118.2484,34.1423]},"properties":{"name":"Glendale","state":"CA","type":2}},{"id":1046,"type":"Feature","geometry":{"type":"Point","coordinates":[-120.8558,39.1807]},"properties":{"name":"Gold Run","state":"CA","type":1}},{"id":1057,"type":"Feature","geometry":{"type":"Point","coordinates":[-121.0611,39.2191]},"properties":{"name":"Grass Valley","state":"CA","type":1}},{"id":22,"type":"Feature","geometry":{"type":"Point","coordinates":[-118.3478,33.9113]},"properties":{"name":"Hawthorne","state":"CA","type":2}},{"id":1084,"type":"Feature","geometry":{"type":"Point","coordinates":[-116.972,33.7475]},"properties":{"name":"Hemet","state":"CA","type":1}},{"id":1124,"type":"Feature","geometry":{"type":"Point","coordinates":[-94.785286,34.201898]},"properties":{"name":"Hidden Hills","state":"CA","type":2}},{"id":1061,"type":"Feature","geometry":{"type":"Point","coordinates":[-121.97778,37.15694]},"properties":{"name":"Holy City","state":"CA","type":1}},{"id":1262,"type":"Feature","geometry":{"type":"Point","coordinates":[-124.157509,40.804977]},"properties":{"name":"Humboldt County","state":"CA","type":4}},{"id":1103,"type":"Feature","geometry":{"type":"Point","coordinates":[-118,33.6781]},"properties":{"name":"Huntington Beach","state":"CA","type":2}},{"id":1082,"type":"Feature","geometry":{"type":"Point","coordinates":[-116.3383,33.7218]},"properties":{"name":"Indian Wells","state":"CA","type":1}},{"id":21,"type":"Feature","geometry":{"type":"Point","coordinates":[-118.3531,33.9617]},"properties":{"name":"Inglewood","state":"CA","type":2}},{"id":1105,"type":"Feature","geometry":{"type":"Point","coordinates":[-117.826,33.6857]},"properties":{"name":"Irvine","state":"CA","type":1}},{"id":1119,"type":"Feature","geometry":{"type":"Point","coordinates":[-118.4254,35.7547]},"properties":{"name":"Kernville","state":"CA","type":1}},{"id":1081,"type":"Feature","geometry":{"type":"Point","coordinates":[-119.5539,36.5138]},"properties":{"name":"Kingsburg","state":"CA","type":1}},{"id":1104,"type":"Feature","geometry":{"type":"Point","coordinates":[-117.9461,33.9319]},"properties":{"name":"La Habra","state":"CA","type":1}},{"id":1125,"type":"Feature","geometry":{"type":"Point","coordinates":[-117.2742,32.8473]},"properties":{"name":"La Jolla","state":"CA","type":2}},{"id":1063,"type":"Feature","geometry":{"type":"Point","coordinates":[-122.118,37.8858]},"properties":{"name":"Lafayette","state":"CA","type":1}},{"id":1051,"type":"Feature","geometry":{"type":"Point","coordinates":[-0.536534,53.2343655]},"properties":{"name":"Lincoln","state":"CA","type":1}},{"id":1067,"type":"Feature","geometry":{"type":"Point","coordinates":[-121.2724,38.1302]},"properties":{"name":"Lodi","state":"CA","type":1}},{"id":1095,"type":"Feature","geometry":{"type":"Point","coordinates":[-118.3195,33.8037]},"properties":{"name":"Lomita","state":"CA","type":2}},{"id":1121,"type":"Feature","geometry":{"type":"Point","coordinates":[-118.2115,33.9303]},"properties":{"name":"Lynwood","state":"CA","type":2}},{"id":1096,"type":"Feature","geometry":{"type":"Point","coordinates":[-118.4,33.8951]},"properties":{"name":"Manhattan Beach","state":"CA","type":2}},{"id":1043,"type":"Feature","geometry":{"type":"Point","coordinates":[-121.5914,39.1457]},"properties":{"name":"Marysville","state":"CA","type":1}},{"id":1073,"type":"Feature","geometry":{"type":"Point","coordinates":[-122.545,37.906]},"properties":{"name":"Mill Valley","state":"CA","type":2}},{"id":1123,"type":"Feature","geometry":{"type":"Point","coordinates":[-118.1292,34.0512]},"properties":{"name":"Monterey Park","state":"CA","type":2}},{"id":1062,"type":"Feature","geometry":{"type":"Point","coordinates":[-122.2855,38.2971]},"properties":{"name":"Napa","state":"CA","type":1}},{"id":1056,"type":"Feature","geometry":{"type":"Point","coordinates":[-121.0161,39.2616]},"properties":{"name":"Nevada City","state":"CA","type":1}},{"id":1092,"type":"Feature","geometry":{"type":"Point","coordinates":[-117.9294,33.617]},"properties":{"name":"Newport Beach","state":"CA","type":1}},{"id":1052,"type":"Feature","geometry":{"type":"Point","coordinates":[-121.5777,38.9032]},"properties":{"name":"Nicolaus","state":"CA","type":1}},{"id":1085,"type":"Feature","geometry":{"type":"Point","coordinates":[-117.5509,33.9323]},"properties":{"name":"Norco","state":"CA","type":2}},{"id":1079,"type":"Feature","geometry":{"type":"Point","coordinates":[-120.65084923765,41.413535222916]},"properties":{"name":"North Palo Alto","state":"CA","type":1}},{"id":1058,"type":"Feature","geometry":{"type":"Point","coordinates":[-119.0296679,35.4107789]},"properties":{"name":"Oildale","state":"CA","type":1}},{"id":1102,"type":"Feature","geometry":{"type":"Point","coordinates":[-117.8503,33.7873]},"properties":{"name":"Orange","state":"CA","type":1}},{"id":1098,"type":"Feature","geometry":{"type":"Point","coordinates":[-117.866379,33.698499]},"properties":{"name":"Orange County","state":"CA","type":4}},{"id":1265,"type":"Feature","geometry":{"type":"Point","coordinates":[-122.1797,37.8771]},"properties":{"name":"Orinda","state":"CA","type":1}},{"id":1263,"type":"Feature","geometry":{"type":"Point","coordinates":[-121.5564,39.5138]},"properties":{"name":"Oroville","state":"CA","type":1}},{"id":1117,"type":"Feature","geometry":{"type":"Point","coordinates":[-118.1171,34.5793]},"properties":{"name":"Palmdale","state":"CA","type":2}},{"id":1093,"type":"Feature","geometry":{"type":"Point","coordinates":[-118.4018,33.7872]},"properties":{"name":"Palos Verdes Estates","state":"CA","type":2}},{"id":1068,"type":"Feature","geometry":{"type":"Point","coordinates":[-119.5271,36.6116]},"properties":{"name":"Parlier","state":"CA","type":1}},{"id":1028,"type":"Feature","geometry":{"type":"Point","coordinates":[-118.1445,34.1476]},"properties":{"name":"Pasadena","state":"CA","type":2}},{"id":1078,"type":"Feature","geometry":{"type":"Point","coordinates":[-122.252775,37.826115]},"properties":{"name":"Piedmont","state":"CA","type":1}},{"id":1254,"type":"Feature","geometry":{"type":"Point","coordinates":[-120.7985,38.7296]},"properties":{"name":"Placerville","state":"CA","type":1}},{"id":1120,"type":"Feature","geometry":{"type":"Point","coordinates":[-119.0168,36.0652]},"properties":{"name":"Porterville","state":"CA","type":1}}]}